fecha,indicativo,fecha_maxima,temMax,nombre_clean,provincia_clean,latitud,longitud,record,nota,junio,mayo,abril,marzo,febrero,enero
2024-06-07,1696O,2015-06-29,34.9,Beariz,Ourense,42.46805556,-8.278055556,Mensual,Beariz 35.3ºC,35.3,NA,NA,NA,NA,NA
2024-06-06,6268Y,2016-06-13,33.8,"Motril, Puerto",Granada,36.72388889,-3.529166667,Mensual,NA,33.8,NA,NA,NA,NA,NA
2024-06-06,9201X,2023-06-25,32.1,Jaca,Huesca,42.57972222,-0.545,Mensual,NA,32.2,NA,NA,NA,NA,NA
2024-06-07,C328W,2023-06-08,28.3,Hermigua,Sta. Cruz de Tenerife,28.16361111,-17.19416667,Mensual,Hermigua 29ºC,29,NA,NA,NA,NA,NA
2024-05-30,4090Y,2011-05-28,33.9,San Clemente,Cuenca,39.41666667,-2.420555556,Mensual,San Clemente 34.4ºC,NA,34.4,NA,NA,NA,NA
2024-05-30,4386B,2015-05-13,36.9,Llerena,Badajoz,38.23166667,-6.016944444,Mensual,NA,NA,37,NA,NA,NA,NA
2024-05-30,5038X,2009-05-20,36.2,Cazorla,Jaén,37.91583333,-3.003888889,Mensual,NA,NA,37.1,NA,NA,NA,NA
2024-05-30,5612B,2015-05-14,37.7,La Roda de Andalucía,Sevilla,37.19444444,-4.77,Mensual,La Roda de Andalucía 38.1ºC,NA,38.1,NA,NA,NA,NA
2024-05-30,5704B,1999-05-12,36,Cazalla de la Sierra,Sevilla,37.92638889,-5.769722222,Mensual,NA,NA,36.1,NA,NA,NA,NA
2024-05-30,8177A,2015-05-13,34.9,Chinchilla,Albacete,38.93583333,-1.66,Mensual,NA,NA,35,NA,NA,NA,NA
2024-05-30,9981A,2006-05-27,36,Estación de Tortosa (Roquetes),Tarragona,40.82027778,0.4933333333,Mensual,NA,NA,36.1,NA,NA,NA,NA
2024-04-13,0149X,2011-04-08,30,Manresa,Barcelona,41.72,1.840277778,Mensual,NA,NA,NA,30.3,NA,NA,NA
2024-04-14,0200E,2023-04-12,27.5,"Barcelona, Fabra",Barcelona,41.41833333,2.124166667,Mensual,NA,NA,NA,29.4,NA,NA,NA
2024-04-14,0201D,2009-04-22,25,Barcelona,Barcelona,41.39055556,2.2,Mensual,NA,NA,NA,26.7,NA,NA,NA
2024-04-13,0367,2011-04-08,30.2,Girona Aeropuerto,Girona,41.91166667,2.763333333,Mensual,NA,NA,NA,31.6,NA,NA,NA
2024-04-14,0372C,2022-04-16,29,Porqueres,Girona,42.10444444,2.763611111,Mensual,NA,NA,NA,30.6,NA,NA,NA
2024-04-13,1002Y,2015-04-14,31,"Baztán, Irurita",Navarra,43.13583333,-1.543055556,Mensual,NA,NA,NA,31.2,NA,NA,NA
2024-04-14,1037Y,2011-04-08,28.2,Zumarraga,Gipuzkoa,43.08,-2.3175,Mensual,NA,NA,NA,29.4,NA,NA,NA
2024-04-06,1057B,2018-04-18,27.3,Matxitxako,Bizkaia,43.45388889,-2.752777778,Mensual,NA,NA,NA,27.3,NA,NA,NA
2024-04-06,1059X,2011-04-06,30.7,Punta Galea,Bizkaia,43.375,-3.021666667,Mensual,NA,NA,NA,30.9,NA,NA,NA
2024-04-13,1078I,2010-04-28,30.7,Güeñes,Bizkaia,43.20333333,-3.104722222,Mensual,NA,NA,NA,31.3,NA,NA,NA
2024-04-06,1083L,2015-04-14,25.9,Castro Urdiales,Cantabria,43.39472222,-3.233888889,Mensual,NA,NA,NA,29.1,NA,NA,NA
2024-04-06,1111X,2022-04-11,27.4,Santander,Cantabria,43.49111111,-3.800555556,Mensual,NA,NA,NA,27.7,NA,NA,NA
2024-04-06,1159,2003-04-13,27.7,San Vicente de la Barquera,Cantabria,43.39333333,-4.392222222,Mensual,NA,NA,NA,28.3,NA,NA,NA
2024-04-06,1183X,2003-04-28,25.5,Llanes,Asturias,43.42027778,-4.748055556,Mensual,NA,NA,NA,27.9,NA,NA,NA
2024-04-05,1207U,1984-04-22,28,"Gijón, Campus",Asturias,43.52305556,-5.621111111,Mensual,NA,NA,NA,28.4,NA,NA,NA
2024-04-05,1208H,2003-04-13,27,"Gijón, Puerto",Asturias,43.56,-5.700833333,Mensual,NA,NA,NA,29,NA,NA,NA
2024-04-05,1210X,2003-04-13,24.7,Cabo Peñas,Asturias,43.65583333,-5.848611111,Mensual,NA,NA,NA,27.1,NA,NA,NA
2024-04-12,1249X,2015-04-14,26.9,Oviedo,Asturias,43.35333333,-5.874166667,Mensual,NA,NA,NA,28.8,NA,NA,NA
2024-04-05,1283U,2011-04-06,24.6,Cabo Busto,Asturias,43.56916667,-6.47,Mensual,NA,NA,NA,28.1,NA,NA,NA
2024-04-05,1331A,2015-04-14,24.3,Castropol,Asturias,43.52472222,-7.031388889,Mensual,NA,NA,NA,27.9,NA,NA,NA
2024-04-05,1351,2011-04-06,25.5,Estaca de Bares,A Coruña,43.78611111,-7.685,Mensual,NA,NA,NA,26.5,NA,NA,NA
2024-04-12,1690A,2011-04-07,32.9,Ourense,Ourense,42.32527778,-7.859722222,Mensual,NA,NA,NA,33.9,NA,NA,NA
2024-04-13,1735X,2011-04-07,29.3,Xinzo de Limia,Ourense,42.07916667,-7.733611111,Mensual,NA,NA,NA,29.7,NA,NA,NA
2024-04-13,2235U,2023-04-28,27,Cervera de Pisuerga,Palencia,42.87055556,-4.52,Mensual,NA,NA,NA,27.2,NA,NA,NA
2024-04-12,2630X,2011-04-08,24.3,Puerto de San Isidro,León,43.06222222,-5.376944444,Mensual,NA,NA,NA,24.5,NA,NA,NA
2024-04-12,2737E,2023-04-27,26.4,Lagunas de Somoza,León,42.3775,-6.196666667,Mensual,NA,NA,NA,27,NA,NA,NA
2024-04-12,2775X,2011-04-08,28.3,Villardeciervos,Zamora,41.94138889,-6.279722222,Mensual,NA,NA,NA,28.6,NA,NA,NA
2024-04-16,5000C,2023-04-10,29.7,Ceuta,Ceuta,35.88861111,-5.346944444,Mensual,NA,NA,NA,30,NA,NA,NA
2024-04-16,6000A,2002-04-27,30.6,Melilla,Melilla,35.27638889,-2.956388889,Mensual,NA,NA,NA,31.7,NA,NA,NA
2024-04-06,6325O,2018-04-23,30.6,Almería Aeropuerto,Almería,36.84638889,-2.356944444,Mensual,NA,NA,NA,32.1,NA,NA,NA
2024-04-13,9051,2011-04-08,30.3,Medina de Pomar,Burgos,42.92,-3.482777778,Mensual,NA,NA,NA,30.9,NA,NA,NA
2024-04-13,9091O,2011-04-08,29.1,Foronda-Txokiza,Araba/Álava,42.88194444,-2.735,Mensual,NA,NA,NA,29.2,NA,NA,NA
2024-04-13,9091R,2013-04-17,28.8,Vitoria-Gasteiz Aeropuerto,Araba/Álava,42.87194444,-2.732777778,Mensual,NA,NA,NA,30.2,NA,NA,NA
2024-04-14,9111,2023-04-27,27.4,Belorado,Burgos,42.42111111,-3.170277778,Mensual,NA,NA,NA,27.6,NA,NA,NA
2024-04-14,9263X,2011-04-08,27.6,"Aranguren, Ilundain",Navarra,42.77611111,-1.5325,Mensual,NA,NA,NA,28.2,NA,NA,NA
2024-04-13,9585,1934-04-16,22,La Molina,Girona,42.3325,1.939444444,Mensual,La Molina 22ºC,NA,NA,22,NA,NA,NA
2024-04-14,9990X,2023-04-28,26.8,"Naut Aran, Arties",Lleida,42.70027778,0.8769444444,Mensual,NA,NA,NA,28.3,NA,NA,NA
2024-04-06,B228,1992-04-25,28,"Palma, Puerto",Baleares,39.55527778,2.625277778,Mensual,NA,NA,NA,28.9,NA,NA,NA
2024-04-14,B346X,2012-04-27,29.8,Porreres,Baleares,39.52166667,3.019166667,Mensual,NA,NA,NA,30.1,NA,NA,NA
2024-04-11,C229J,2008-04-25,36.1,Pájara,Las Palmas,28.04916667,-14.35805556,Mensual,NA,NA,NA,38,NA,NA,NA
2024-04-11,C329Z,2002-04-23,33.4,San Sebastián de La Gomera,Sta. Cruz de Tenerife,28.08972222,-17.11138889,Mensual,NA,NA,NA,35.3,NA,NA,NA
2024-04-11,C429I,2008-04-27,36.2,Tenerife Sur Aeropuerto,Sta. Cruz de Tenerife,28.04694444,-16.56111111,Mensual,Tenerife Sur Aeropuerto 38.3ºC,NA,NA,38.3,NA,NA,NA
2024-03-21,0324A,1990-03-22,25.5,Ripoll,Girona,42.19138889,2.196111111,Mensual,NA,NA,NA,NA,25.7,NA,NA
2024-03-22,1484C,2021-03-31,28.6,Pontevedra,Pontevedra,42.43833333,-8.615833333,Mensual,NA,NA,NA,NA,28.6,NA,NA
2024-03-22,1542,2002-03-23,18.8,Puerto de Leitariegos,Asturias,42.99416667,-6.414166667,Mensual,NA,NA,NA,NA,20.6,NA,NA
2024-03-22,1549,2017-03-10,27.2,Ponferrada,León,42.56388889,-6.6,Mensual,NA,NA,NA,NA,28.8,NA,NA
2024-03-22,1700X,2002-03-23,30.1,O Carballiño,Ourense,42.42138889,-8.0925,Mensual,O Carballiño 30.3ºC,NA,NA,NA,30.3,NA,NA
2024-03-22,1735X,2012-03-25,25.9,Xinzo de Limia,Ourense,42.07916667,-7.733611111,Mensual,NA,NA,NA,NA,27.2,NA,NA
2024-03-22,2030,2017-03-10,25.4,Soria,Soria,41.775,-2.483055556,Mensual,NA,NA,NA,NA,25.5,NA,NA
2024-03-22,2150H,2017-03-10,18.7,"La Pinilla, Estación de Esquí",Segovia,41.19194444,-3.475277778,Mensual,NA,NA,NA,NA,19.3,NA,NA
2024-03-22,2235U,2017-03-10,24.3,Cervera de Pisuerga,Palencia,42.87055556,-4.52,Mensual,NA,NA,NA,NA,24.7,NA,NA
2024-03-22,2298,2017-03-10,23.7,Palacios de La Sierra,Burgos,41.95972222,-3.131666667,Mensual,NA,NA,NA,NA,25.7,NA,NA
2024-03-22,2331,1957-03-11,24.5,Burgos Aeropuerto,Burgos,42.35694444,-3.621388889,Mensual,NA,NA,NA,NA,24.6,NA,NA
2024-03-22,2374X,2017-03-10,25.1,Carrión de los Condes,Palencia,42.35083333,-4.617222222,Mensual,NA,NA,NA,NA,26.1,NA,NA
2024-03-22,2422,2021-03-31,26,Valladolid,Valladolid,41.64083333,-4.754444444,Mensual,NA,NA,NA,NA,26.6,NA,NA
2024-03-23,2462,2020-03-11,18.9,Puerto de Navacerrada,Madrid,40.79305556,-4.010555556,Mensual,Puerto de Navacerrada 18.9ºC,NA,NA,NA,18.9,NA,NA
2024-03-22,2465,2017-03-09,24.6,Segovia,Segovia,40.94527778,-4.126388889,Mensual,NA,NA,NA,NA,24.9,NA,NA
2024-03-22,2539,1965-03-30,24.6,Valladolid Aeropuerto,Valladolid,41.71194444,-4.855555556,Mensual,NA,NA,NA,NA,25.4,NA,NA
2024-03-22,2755X,1992-03-20,26.1,Benavente,Zamora,42.01083333,-5.666666667,Mensual,NA,NA,NA,NA,26.1,NA,NA
2024-03-22,3130C,2020-03-11,24.6,Sigüenza,Guadalajara,41.08638889,-2.618055556,Mensual,NA,NA,NA,NA,24.8,NA,NA
2024-03-22,3168D,2015-03-31,26.9,Guadalajara,Guadalajara,40.63027778,-3.15,Mensual,NA,NA,NA,NA,27.6,NA,NA
2024-03-22,4147X,2020-03-11,28.6,Valdepeñas,Ciudad Real,38.75055556,-3.391388889,Mensual,NA,NA,NA,NA,28.8,NA,NA
2024-03-23,5514,2015-03-31,29.1,Granada Base Aérea,Granada,37.13722222,-3.631388889,Mensual,NA,NA,NA,NA,29.3,NA,NA
2024-03-23,6293X,2023-03-31,23.3,Roquetas de Mar,Almería,36.68694444,-2.701666667,Mensual,NA,NA,NA,NA,27,NA,NA
2024-03-18,6302A,2001-03-23,29.9,Abla,Almería,37.14138889,-2.78,Mensual,NA,NA,NA,NA,30,NA,NA
2024-03-19,8177A,2023-03-29,25.1,Chinchilla,Albacete,38.93583333,-1.66,Mensual,NA,NA,NA,NA,29,NA,NA
2024-03-22,8368U,2020-03-12,28,Teruel,Teruel,40.35055556,-1.124166667,Mensual,NA,NA,NA,NA,28.2,NA,NA
2024-03-22,9001D,2017-03-09,24,Reinosa,Cantabria,42.99194444,-4.160555556,Mensual,NA,NA,NA,NA,24.4,NA,NA
2024-03-22,9019B,2002-03-22,25.8,"Valderredible, Polientes",Cantabria,42.80638889,-3.933888889,Mensual,NA,NA,NA,NA,27.7,NA,NA
2024-03-22,9208E,2020-03-12,23.6,Aragüés del Puerto,Huesca,42.70861111,-0.6727777778,Mensual,NA,NA,NA,NA,24.7,NA,NA
2024-03-22,9263X,2023-03-29,24.5,"Aranguren, Ilundain",Navarra,42.77611111,-1.5325,Mensual,NA,NA,NA,NA,24.7,NA,NA
2024-02-04,0200E,2020-02-03,22.4,"Barcelona, Fabra",Barcelona,41.41833333,2.124166667,Mensual,NA,NA,NA,NA,NA,23.5,NA
2024-02-04,0372C,2023-02-04,24.3,Porqueres,Girona,42.10444444,2.763611111,Mensual,NA,NA,NA,NA,NA,25.2,NA
2024-02-15,1059X,2019-02-27,25.1,Punta Galea,Bizkaia,43.375,-3.021666667,Mensual,NA,NA,NA,NA,NA,25.1,NA
2024-02-15,1078I,2019-02-27,24.6,Güeñes,Bizkaia,43.20333333,-3.104722222,Mensual,NA,NA,NA,NA,NA,25.3,NA
2024-02-15,1159,2014-02-14,24.5,San Vicente de la Barquera,Cantabria,43.39333333,-4.392222222,Mensual,San Vicente de la Barquera 27.6ºC,NA,NA,NA,NA,27.6,NA
2024-02-15,1183X,2014-02-14,24.4,Llanes,Asturias,43.42027778,-4.748055556,Mensual,NA,NA,NA,NA,NA,26.5,NA
2024-02-15,1208H,2014-02-14,24.2,"Gijón, Puerto",Asturias,43.56,-5.700833333,Mensual,NA,NA,NA,NA,NA,24.9,NA
2024-02-15,1210X,2004-02-03,22.4,Cabo Peñas,Asturias,43.65583333,-5.848611111,Mensual,NA,NA,NA,NA,NA,23.2,NA
2024-02-04,3111D,2012-02-28,15.5,Somosierra,Madrid,41.13555556,-3.580277778,Mensual,Somosierra 15.9ºC,NA,NA,NA,NA,15.9,NA
2024-02-14,5192,2022-02-02,22.2,Villarrodrigo,Jaén,38.48916667,-2.6375,Mensual,NA,NA,NA,NA,NA,23,NA
2024-02-14,6293X,2021-02-05,22.2,Roquetas de Mar,Almería,36.68694444,-2.701666667,Mensual,NA,NA,NA,NA,NA,23.2,NA
2024-02-14,6325O,2007-02-16,25.2,Almería Aeropuerto,Almería,36.84638889,-2.356944444,Mensual,NA,NA,NA,NA,NA,27,NA
2024-01-26,0149X,2021-01-29,19.7,Manresa,Barcelona,41.72,1.840277778,Mensual,NA,NA,NA,NA,NA,NA,21.2
2024-01-26,0252D,2016-01-08,22.3,Arenys de Mar,Barcelona,41.5875,2.54,Mensual,NA,NA,NA,NA,NA,NA,22.8
2024-01-25,0324A,2003-01-27,20.9,Ripoll,Girona,42.19138889,2.196111111,Mensual,NA,NA,NA,NA,NA,NA,21
2024-01-25,0372C,2018-01-03,22.1,Porqueres,Girona,42.10444444,2.763611111,Mensual,NA,NA,NA,NA,NA,NA,25.2
2024-01-28,1002Y,2022-01-01,21.3,"Baztán, Irurita",Navarra,43.13583333,-1.543055556,Mensual,NA,NA,NA,NA,NA,NA,21.5
2024-01-28,1014,1999-01-06,24.6,"Hondarribia, Malkarroa",Gipuzkoa,43.35694444,-1.792222222,Mensual,NA,NA,NA,NA,NA,NA,25.2
2024-01-27,1037Y,2022-01-01,19.5,Zumarraga,Gipuzkoa,43.08,-2.3175,Mensual,NA,NA,NA,NA,NA,NA,19.8
2024-01-28,1050J,2022-01-01,22.7,Elgoibar,Gipuzkoa,43.20944444,-2.413333333,Mensual,NA,NA,NA,NA,NA,NA,22.8
2024-01-28,1059X,2020-01-31,21.4,Punta Galea,Bizkaia,43.375,-3.021666667,Mensual,NA,NA,NA,NA,NA,NA,22.6
2024-01-25,1221D,2020-01-01,16.1,Pajares-Valgrande,Asturias,42.97861111,-5.776388889,Mensual,NA,NA,NA,NA,NA,NA,17.6
2024-01-27,1387E,2022-01-01,22.3,A Coruña Aeropuerto,A Coruña,43.30694444,-8.371944444,Mensual,NA,NA,NA,NA,NA,NA,22.4
2024-01-25,1542,2022-01-29,14.8,Puerto de Leitariegos,Asturias,42.99416667,-6.414166667,Mensual,NA,NA,NA,NA,NA,NA,17.3
2024-01-31,1735X,2022-01-01,18.6,Xinzo de Limia,Ourense,42.07916667,-7.733611111,Mensual,NA,NA,NA,NA,NA,NA,19.1
2024-01-24,2030,1944-01-29,20,Soria,Soria,41.775,-2.483055556,Mensual,NA,NA,NA,NA,NA,NA,20.8
2024-01-25,2150H,1982-01-31,16,"La Pinilla, Estación de Esquí",Segovia,41.19194444,-3.475277778,Mensual,NA,NA,NA,NA,NA,NA,17.9
2024-01-27,2235U,2013-01-06,19,Cervera de Pisuerga,Palencia,42.87055556,-4.52,Mensual,NA,NA,NA,NA,NA,NA,19.1
2024-01-27,2298,2022-01-01,18,Palacios de La Sierra,Burgos,41.95972222,-3.131666667,Mensual,NA,NA,NA,NA,NA,NA,20.2
2024-01-27,2331,1944-01-29,19,Burgos Aeropuerto,Burgos,42.35694444,-3.621388889,Mensual,NA,NA,NA,NA,NA,NA,19.1
2024-01-28,2400E,2023-01-01,15.7,Autilla del Pino,Palencia,41.99555556,-4.602777778,Mensual,NA,NA,NA,NA,NA,NA,15.9
2024-01-24,2444,2007-01-19,19.6,Ávila,Ávila,40.65916667,-4.679722222,Mensual,NA,NA,NA,NA,NA,NA,20.8
2024-01-25,2462,2013-01-06,16.3,Puerto de Navacerrada,Madrid,40.79305556,-4.010555556,Mensual,NA,NA,NA,NA,NA,NA,18.3
2024-01-27,2465,2022-01-01,20.1,Segovia,Segovia,40.94527778,-4.126388889,Mensual,NA,NA,NA,NA,NA,NA,20.1
2024-01-26,2491C,2020-01-01,15.3,"La Covatilla, Estación de Esquí",Salamanca,40.355,-5.69,Mensual,"La Covatilla, Estación de Esquí 15.6ºC",NA,NA,NA,NA,NA,15.6
2024-01-28,2539,1966-01-19,17,Valladolid Aeropuerto,Valladolid,41.71194444,-4.855555556,Mensual,NA,NA,NA,NA,NA,NA,17.4
2024-01-24,2630X,2012-01-10,15.6,Puerto de San Isidro,León,43.06222222,-5.376944444,Mensual,NA,NA,NA,NA,NA,NA,20.1
2024-01-26,3110C,2007-01-12,19.3,Buitrago del Lozoya,Madrid,41.00694444,-3.613611111,Mensual,NA,NA,NA,NA,NA,NA,21.6
2024-01-26,3111D,2007-01-19,17.8,Somosierra,Madrid,41.13555556,-3.580277778,Mensual,NA,NA,NA,NA,NA,NA,19.1
2024-01-26,3130C,2022-01-01,19.9,Sigüenza,Guadalajara,41.08638889,-2.618055556,Mensual,NA,NA,NA,NA,NA,NA,21
2024-01-26,3168D,2016-01-24,19.8,Guadalajara,Guadalajara,40.63027778,-3.15,Mensual,NA,NA,NA,NA,NA,NA,21.6
2024-01-26,3175,2003-01-27,21,Torrejón de Ardoz,Madrid,40.48861111,-3.443611111,Mensual,NA,NA,NA,NA,NA,NA,21.5
2024-01-26,3191E,2022-01-01,18,Colmenar Viejo,Madrid,40.69611111,-3.765,Mensual,NA,NA,NA,NA,NA,NA,20.2
2024-01-26,3196,2003-01-27,20.6,"Madrid, Cuatro Vientos",Madrid,40.37555556,-3.786111111,Mensual,NA,NA,NA,NA,NA,NA,20.6
2024-01-25,3266A,2002-01-28,15.9,Puerto Alto del León,Madrid,40.70638889,-4.141944444,Mensual,NA,NA,NA,NA,NA,NA,18.3
2024-01-25,3298X,2012-01-05,17.9,San Pablo de los Montes,Toledo,39.54694444,-4.350555556,Mensual,NA,NA,NA,NA,NA,NA,21
2024-01-24,4061X,2022-01-01,20,Quintanar de la Orden,Toledo,39.59722222,-3.048333333,Mensual,NA,NA,NA,NA,NA,NA,21.3
2024-01-25,4090Y,2022-01-01,19.2,San Clemente,Cuenca,39.41666667,-2.420555556,Mensual,NA,NA,NA,NA,NA,NA,20
2024-01-27,4147X,2021-01-29,20.9,Valdepeñas,Ciudad Real,38.75055556,-3.391388889,Mensual,NA,NA,NA,NA,NA,NA,22.4
2024-01-27,4148,2021-01-29,21.7,Viso del Marqués,Ciudad Real,38.51805556,-3.566666667,Mensual,NA,NA,NA,NA,NA,NA,23.6
2024-01-27,4220X,2021-01-28,21.4,Puebla de Don Rodrigo,Ciudad Real,39.08361111,-4.621944444,Mensual,NA,NA,NA,NA,NA,NA,22.8
2024-01-26,4244X,2016-01-24,20.8,Herrera del Duque,Badajoz,39.16944444,-5.062222222,Mensual,NA,NA,NA,NA,NA,NA,22.9
2024-01-27,4267X,2016-01-24,20.8,Hinojosa del Duque,Córdoba,38.49861111,-5.121111111,Mensual,NA,NA,NA,NA,NA,NA,21.6
2024-01-26,4358X,2023-01-01,21.3,Don Benito,Badajoz,38.95555556,-5.880555556,Mensual,NA,NA,NA,NA,NA,NA,21.8
2024-01-26,4410X,2003-01-27,23.3,Mérida,Badajoz,38.91583333,-6.385555556,Mensual,NA,NA,NA,NA,NA,NA,23.4
2024-01-25,4511C,2022-01-03,21.7,Jerez de los Caballeros,Badajoz,38.29861111,-6.765,Mensual,NA,NA,NA,NA,NA,NA,23
2024-01-25,4549Y,2022-01-31,23.2,Ayamonte,Huelva,37.19472222,-7.395,Mensual,NA,NA,NA,NA,NA,NA,24.6
2024-01-26,4560Y,2022-01-01,22.8,Alajar,Huelva,37.86861111,-6.675,Mensual,NA,NA,NA,NA,NA,NA,24.8
2024-01-25,4642E,2008-01-22,24,"Huelva, Ronda Este",Huelva,37.27833333,-6.911666667,Mensual,NA,NA,NA,NA,NA,NA,24.6
2024-01-15,5000C,2021-01-27,23,Ceuta,Ceuta,35.88861111,-5.346944444,Mensual,NA,NA,NA,NA,NA,NA,23.4
2024-01-25,5047E,2022-01-01,23.6,Baza,Granada,37.50583333,-2.735,Mensual,NA,NA,NA,NA,NA,NA,25.6
2024-01-25,5181D,2022-01-01,23.3,Arroyo del Ojanco,Jaén,38.31472222,-2.889722222,Mensual,NA,NA,NA,NA,NA,NA,25.8
2024-01-26,5192,2013-01-31,19.6,Villarrodrigo,Jaén,38.48916667,-2.6375,Mensual,NA,NA,NA,NA,NA,NA,26
2024-01-26,5270B,2022-01-01,20.4,Jaén,Jaén,37.7775,-3.809166667,Mensual,NA,NA,NA,NA,NA,NA,22.4
2024-01-25,5298X,2007-01-20,24.2,Andújar,Jaén,38.02305556,-4.063333333,Mensual,NA,NA,NA,NA,NA,NA,25
2024-01-26,5390Y,2022-01-01,24,Villanueva de Córdoba,Córdoba,38.33305556,-4.608888889,Mensual,NA,NA,NA,NA,NA,NA,24.2
2024-01-27,5402,2007-01-20,22.9,Córdoba Aeropuerto,Córdoba,37.84888889,-4.846666667,Mensual,NA,NA,NA,NA,NA,NA,23.5
2024-01-26,5427X,2021-01-28,25.1,Doña Mencía,Córdoba,37.55611111,-4.353888889,Mensual,NA,NA,NA,NA,NA,NA,25.4
2024-01-25,5514,1959-01-25,23.4,Granada Base Aérea,Granada,37.13722222,-3.631388889,Mensual,NA,NA,NA,NA,NA,NA,26.8
2024-01-25,5530E,2014-01-08,24.6,Granada Aeropuerto,Granada,37.19027778,-3.789722222,Mensual,NA,NA,NA,NA,NA,NA,25.7
2024-01-26,5582A,2003-01-28,23,Loja,Granada,37.16111111,-4.152777778,Mensual,NA,NA,NA,NA,NA,NA,26.1
2024-01-26,5612B,2021-01-28,25.7,La Roda de Andalucía,Sevilla,37.19444444,-4.77,Mensual,NA,NA,NA,NA,NA,NA,27.8
2024-01-25,5704B,2022-01-01,23.6,Cazalla de la Sierra,Sevilla,37.92638889,-5.769722222,Mensual,NA,NA,NA,NA,NA,NA,25
2024-01-25,5860E,2008-01-22,23.2,"Moguer, El Arenosillo",Huelva,37.09805556,-6.738055556,Mensual,NA,NA,NA,NA,NA,NA,24.3
2024-01-24,5910,2016-01-24,22.6,"Rota, Base Naval",Cádiz,36.63888889,-6.3325,Mensual,NA,NA,NA,NA,NA,NA,23.9
2024-01-25,5972X,2007-01-19,21.7,San Fernando,Cádiz,36.46555556,-6.205555556,Mensual,NA,NA,NA,NA,NA,NA,25.4
2024-01-25,5973,2007-01-19,22.5,Cádiz,Cádiz,36.49972222,-6.257777778,Mensual,NA,NA,NA,NA,NA,NA,24.1
2024-01-26,5995B,2022-01-31,22.3,Vejer de la Frontera,Cádiz,36.24555556,-5.965,Mensual,NA,NA,NA,NA,NA,NA,23.4
2024-01-17,6000A,1996-01-01,25.6,Melilla,Melilla,35.27638889,-2.956388889,Mensual,NA,NA,NA,NA,NA,NA,26.7
2024-01-03,6058I,2012-01-06,24.4,Estepona,Málaga,36.41694444,-5.155,Mensual,NA,NA,NA,NA,NA,NA,24.5
2024-01-26,6106X,2003-01-28,23.6,Antequera,Málaga,37.02944444,-4.748333333,Mensual,NA,NA,NA,NA,NA,NA,24.4
2024-01-26,6293X,2023-01-09,20.3,Roquetas de Mar,Almería,36.68694444,-2.701666667,Mensual,NA,NA,NA,NA,NA,NA,21.3
2024-01-27,6325O,2013-01-26,24.4,Almería Aeropuerto,Almería,36.84638889,-2.356944444,Mensual,NA,NA,NA,NA,NA,NA,25.7
2024-01-26,6367B,2021-01-29,27.1,Huércal-Overa,Almería,37.39055556,-1.943611111,Mensual,NA,NA,NA,NA,NA,NA,28
2024-01-25,7119B,2021-01-29,24.3,Caravaca de la Cruz,Murcia,38.1025,-1.877222222,Mensual,NA,NA,NA,NA,NA,NA,25.2
2024-01-25,7209,2021-01-29,27.5,Lorca,Murcia,37.65472222,-1.687222222,Mensual,NA,NA,NA,NA,NA,NA,27.6
2024-01-25,7247X,2021-01-29,24.5,El Pinós/Pinoso,Alicante,38.39972222,-1.038055556,Mensual,NA,NA,NA,NA,NA,NA,26.3
2024-01-26,8096,2022-01-01,23.2,Cuenca,Cuenca,40.06722222,-2.131944444,Mensual,NA,NA,NA,NA,NA,NA,24
2024-01-25,8175,1959-01-25,21.8,Albacete Base Aérea,Albacete,38.95416667,-1.856388889,Mensual,NA,NA,NA,NA,NA,NA,22.8
2024-01-25,8178D,2003-01-27,21.6,Albacete,Albacete,39.00583333,-1.862777778,Mensual,NA,NA,NA,NA,NA,NA,22
2024-01-25,8368U,2021-01-28,21.4,Teruel,Teruel,40.35055556,-1.124166667,Mensual,NA,NA,NA,NA,NA,NA,22.9
2024-01-25,8489X,2022-01-01,22.4,Villafranca del Cid/Villafranca,Castellón,40.43333333,-0.2558333333,Mensual,NA,NA,NA,NA,NA,NA,24.3
2024-01-25,9001D,2008-01-06,18.2,Reinosa,Cantabria,42.99194444,-4.160555556,Mensual,NA,NA,NA,NA,NA,NA,18.7
2024-01-25,9019B,2016-01-24,18.8,"Valderredible, Polientes",Cantabria,42.80638889,-3.933888889,Mensual,NA,NA,NA,NA,NA,NA,19.4
2024-01-25,9051,2003-01-27,20.2,Medina de Pomar,Burgos,42.92,-3.482777778,Mensual,NA,NA,NA,NA,NA,NA,21.5
2024-01-24,9091R,2023-01-01,19.8,Vitoria-Gasteiz Aeropuerto,Araba/Álava,42.87194444,-2.732777778,Mensual,NA,NA,NA,NA,NA,NA,19.8
2024-01-25,9111,2023-01-01,17.2,Belorado,Burgos,42.42111111,-3.170277778,Mensual,NA,NA,NA,NA,NA,NA,21.1
2024-01-25,9170,2007-01-20,19.3,"Logroño, Aeropuerto",La Rioja,42.45222222,-2.331111111,Mensual,NA,NA,NA,NA,NA,NA,22.3
2024-01-25,9208E,2022-01-01,19.7,Aragüés del Puerto,Huesca,42.70861111,-0.6727777778,Mensual,NA,NA,NA,NA,NA,NA,21.8
2024-01-26,9262,1982-01-07,19.5,Pamplona,Navarra,42.81777778,-1.638333333,Mensual,NA,NA,NA,NA,NA,NA,20
2024-01-26,9263D,2023-01-01,18.8,"Pamplona, Aeropuerto",Navarra,42.77694444,-1.65,Mensual,NA,NA,NA,NA,NA,NA,19.5
2024-01-25,9263X,2023-01-01,17.7,"Aranguren, Ilundain",Navarra,42.77611111,-1.5325,Mensual,NA,NA,NA,NA,NA,NA,18.1
2024-01-25,9381I,2016-01-24,21.2,Calamocha,Teruel,40.92611111,-1.293333333,Mensual,NA,NA,NA,NA,NA,NA,21.3
2024-01-25,9563X,2007-01-20,20.9,Castellfort,Castellón,40.49861111,-0.1866666667,Mensual,NA,NA,NA,NA,NA,NA,21.2
2024-01-28,9990X,2023-01-01,18.1,"Naut Aran, Arties",Lleida,42.70027778,0.8769444444,Mensual,NA,NA,NA,NA,NA,NA,20.4
2024-01-26,C139E,2008-01-20,27,La Palma Aeropuerto,Sta. Cruz de Tenerife,28.63305556,-17.755,Mensual,NA,NA,NA,NA,NA,NA,27.6
2024-01-16,C229J,2021-01-28,26.7,Pájara,Las Palmas,28.04916667,-14.35805556,Mensual,NA,NA,NA,NA,NA,NA,26.8
2024-01-16,C249I,2010-01-17,28.5,Fuerteventura Aeropuerto,Las Palmas,28.44472222,-13.86305556,Mensual,NA,NA,NA,NA,NA,NA,29.9
2024-01-12,C439J,2022-01-02,26.4,Güímar,Sta. Cruz de Tenerife,28.31833333,-16.38222222,Mensual,NA,NA,NA,NA,NA,NA,27.2
2024-01-28,C459Z,2007-01-12,28.1,Puerto de La Cruz,Sta. Cruz de Tenerife,28.41805556,-16.54805556,Mensual,NA,NA,NA,NA,NA,NA,28.3
2024-01-16,C649I,2010-01-18,29.5,Gran Canaria Aeropuerto,Las Palmas,27.91777778,-15.39527778,Mensual,Gran Canaria Aeropuerto 30.8ºC,NA,NA,NA,NA,NA,30.8
2024-01-16,C659H,2016-01-14,28.5,"Las Palmas de Gran Canaria, San Cristóbal",Las Palmas,28.08972222,-15.41611111,Mensual,NA,NA,NA,NA,NA,NA,29.1
2024-01-16,C659M,2021-01-07,26.1,"Las Palmas de Gran Canaria, Pl. de la Feria",Las Palmas,28.11305556,-15.42138889,Mensual,NA,NA,NA,NA,NA,NA,27.8
2024-01-16,C929I,2016-01-15,28.5,El Hierro Aeropuerto,Sta. Cruz de Tenerife,27.81888889,-17.88888889,Mensual,NA,NA,NA,NA,NA,NA,28.7
